{"items": [{"location": {"pk": 824076426, "name": "Goa", "address": "", "city": "", "short_name": "Goa", "lng": 74.043333, "lat": 15.401944, "external_source": "facebook_places", "facebook_places_id": 1112126685469256}, "title": "Goa", "subtitle": "", "profile_pic_url": null}, {"location": {"pk": 567044178, "name": "Goa", "address": "", "city": "", "short_name": "Goa", "lng": 73.7512949098, "lat": 18.6485982299, "external_source": "facebook_places", "facebook_places_id": 112647418754892}, "title": "Goa", "subtitle": "", "profile_pic_url": null}, {"location": {"pk": 217438573, "name": "Panjim, Goa, India", "address": "", "city": "", "short_name": "Panjim", "lng": 73.8278, "lat": 15.4988, "external_source": "facebook_places", "facebook_places_id": 113481532002672}, "title": "Panjim, Goa, India", "subtitle": "", "profile_pic_url": null}, {"location": {"pk": 218550864, "name": "Goa Baga Beach", "address": "", "city": "Goa, India", "short_name": "Goa Baga Beach", "lng": 77.6115571, "lat": 12.9368237, "external_source": "facebook_places", "facebook_places_id": 268836993228629}, "title": "Goa Baga Beach", "subtitle": "Goa, India", "profile_pic_url": null}, {"location": {"pk": 375971039422927, "name": "Goa Calangute Beach", "address": "Calangute", "city": "Goa, India", "short_name": "Goa Calangute Beach", "lng": 73.763927572476, "lat": 15.536570242546, "external_source": "facebook_places", "facebook_places_id": 375971039422927}, "title": "Goa Calangute Beach", "subtitle": "Calangute, Goa, India", "profile_pic_url": null}, {"location": {"pk": 564384757095033, "name": "Goa City, India", "address": "Goa, India ", "city": "Calangute", "short_name": "Goa City", "lng": 73.76177, "lat": 15.55166, "external_source": "facebook_places", "facebook_places_id": 564384757095033}, "title": "Goa City, India", "subtitle": "Goa, India , Calangute", "profile_pic_url": null}, {"location": {"pk": 213063425, "name": "Arambol, Goa, India", "address": "", "city": "", "short_name": "Arambol", "lng": 73.7, "lat": 15.7, "external_source": "facebook_places", "facebook_places_id": 109079712453607}, "title": "Arambol, Goa, India", "subtitle": "", "profile_pic_url": null}, {"location": {"pk": 214293975721846, "name": "Goa Bagha Beach", "address": "", "city": "Mumbai, Maharashtra", "short_name": "Goa Bagha Beach", "lng": 72.854657, "lat": 19.1404708, "external_source": "facebook_places", "facebook_places_id": 214293975721846}, "title": "Goa Bagha Beach", "subtitle": "Mumbai, Maharashtra", "profile_pic_url": null}, {"location": {"pk": 433169586736944, "name": "Goa", "address": "", "city": "Thane", "short_name": "Goa", "lng": 72.982716006349, "lat": 19.229843223732, "external_source": "facebook_places", "facebook_places_id": 433169586736944}, "title": "Goa", "subtitle": "Thane", "profile_pic_url": null}, {"location": {"pk": 293071619, "name": "Goa Mapusa", "address": "", "city": "Mumbai, Maharashtra", "short_name": "Goa Mapusa", "lng": 72.82703, "lat": 19.1281247, "external_source": "facebook_places", "facebook_places_id": 1427208070842242}, "title": "Goa Mapusa", "subtitle": "Mumbai, Maharashtra", "profile_pic_url": null}, {"location": {"pk": 717138410, "name": "Goa Bagha Beach", "address": "", "city": "", "short_name": "Goa Bagha Beach", "lng": 73.926059543133, "lat": 18.517607656257, "external_source": "facebook_places", "facebook_places_id": 361079587320200}, "title": "Goa Bagha Beach", "subtitle": "", "profile_pic_url": null}, {"location": {"pk": 227051721, "name": "Goa Panjim", "address": "", "city": "", "short_name": "Goa Panjim", "lng": 72.824940289855, "lat": 19.143775419011, "external_source": "facebook_places", "facebook_places_id": 241538539248508}, "title": "Goa Panjim", "subtitle": "", "profile_pic_url": null}, {"location": {"pk": 1357267644333559, "name": "Goa", "address": "Resturents", "city": "", "short_name": "Goa", "lng": 73.80003, "lat": 18.64744, "external_source": "facebook_places", "facebook_places_id": 1357267644333559}, "title": "Goa", "subtitle": "Resturents", "profile_pic_url": null}, {"location": {"pk": 235605169, "name": "Calangute Beach, North Goa, India", "address": "", "city": "Delhi, India", "short_name": "Calangute Beach", "lng": 73.755626885428, "lat": 15.542581260556, "external_source": "facebook_places", "facebook_places_id": 210222795661670}, "title": "Calangute Beach, North Goa, India", "subtitle": "Delhi, India", "profile_pic_url": null}, {"location": {"pk": 245016520, "name": "Ponda, Goa", "address": "", "city": "", "short_name": "Ponda", "lng": 74.00649, "lat": 15.40603, "external_source": "facebook_places", "facebook_places_id": 108727359157803}, "title": "Ponda, Goa", "subtitle": "", "profile_pic_url": null}, {"location": {"pk": 620966204, "name": "Calungute Beach, Goa", "address": "", "city": "Pen, Maharashtra", "short_name": "Calungute Beach", "lng": 73.084682, "lat": 18.800426, "external_source": "facebook_places", "facebook_places_id": 526458277374013}, "title": "Calungute Beach, Goa", "subtitle": "Pen, Maharashtra", "profile_pic_url": null}, {"location": {"pk": 430173097, "name": "Goalpara", "address": "", "city": "", "short_name": "Goalpara", "lng": 90.62, "lat": 26.17, "external_source": "facebook_places", "facebook_places_id": 103720026333781}, "title": "Goalpara", "subtitle": "", "profile_pic_url": null}, {"location": {"pk": 369306877, "name": "Goa Panjim", "address": "", "city": "Mumbai, Maharashtra", "short_name": "Goa Panjim", "lng": 72.998260454545, "lat": 19.071433636364, "external_source": "facebook_places", "facebook_places_id": 354979411267271}, "title": "Goa Panjim", "subtitle": "Mumbai, Maharashtra", "profile_pic_url": null}, {"location": {"pk": 718315178, "name": "Goa Old Goa Church", "address": "", "city": "", "short_name": "Goa Old Goa Church", "lng": 72.82692, "lat": 19.147218493151, "external_source": "facebook_places", "facebook_places_id": 450483018335716}, "title": "Goa Old Goa Church", "subtitle": "", "profile_pic_url": null}, {"location": {"pk": 213082197, "name": "Aguada Fort, Goa, India", "address": "", "city": "", "short_name": "Aguada Fort", "lng": 73.766398731859, "lat": 15.49849428666, "external_source": "facebook_places", "facebook_places_id": 117349491612842}, "title": "Aguada Fort, Goa, India", "subtitle": "", "profile_pic_url": null}, {"location": {"pk": 564644624, "name": "Arambol Beach, Goa", "address": "", "city": "", "short_name": "Arambol Beach", "lng": 72.8271091, "lat": 18.9583156, "external_source": "facebook_places", "facebook_places_id": 781106008592691}, "title": "Arambol Beach, Goa", "subtitle": "", "profile_pic_url": null}, {"location": {"pk": 467868868, "name": "Vagator Beach North Goa", "address": "", "city": "", "short_name": "Vagator Beach North Goa", "lng": 72.875268303909, "lat": 19.096128330141, "external_source": "facebook_places", "facebook_places_id": 1463469563867147}, "title": "Vagator Beach North Goa", "subtitle": "", "profile_pic_url": null}, {"location": {"pk": 308357319, "name": "Sawantwadi,Goa", "address": "", "city": "", "short_name": "Sawantwadi", "lng": 72.846731, "lat": 19.22655, "external_source": "facebook_places", "facebook_places_id": 123233064500210}, "title": "Sawantwadi,Goa", "subtitle": "", "profile_pic_url": null}, {"location": {"pk": 526037691, "name": "Goa Portuguesa Restobar", "address": "Mili Building, T. H. Kataria Road, Near Hinduja Hospital, Opposite Mahim Post Office, Shivaji Park", "city": "Mahim W. Mumbai, India", "short_name": "Goa Portuguesa Restobar", "lng": 72.840170837428, "lat": 19.031892741575, "external_source": "facebook_places", "facebook_places_id": 252317124795766}, "title": "Goa Portuguesa Restobar", "subtitle": "Mili Building, T. H. Kataria Road, Near Hinduja Hospital, Opposite Mahim Post Office, Shivaji Park, Mahim W. Mumbai, India", "profile_pic_url": null}, {"location": {"pk": 420189784, "name": "Baga Beach, Goa", "address": "", "city": "", "short_name": "Baga Beach", "lng": 75.15777, "lat": 15.34804, "external_source": "facebook_places", "facebook_places_id": 1475397762705530}, "title": "Baga Beach, Goa", "subtitle": "", "profile_pic_url": null}, {"location": {"pk": 217049792, "name": "Goa International Airport", "address": "", "city": "", "short_name": "Goa International Airport", "lng": 73.831388888889, "lat": 15.380833333333, "external_source": "facebook_places", "facebook_places_id": 112661005450434}, "title": "Goa International Airport", "subtitle": "", "profile_pic_url": null}, {"location": {"pk": 4794723, "name": "Old Goa", "address": "goa", "city": "", "short_name": "Old Goa", "lng": 73.911746, "lat": 15.50238, "external_source": "facebook_places", "facebook_places_id": 109731575719906}, "title": "Old Goa", "subtitle": "goa", "profile_pic_url": null}, {"location": {"pk": 440484029634980, "name": "Goa Colva Beach", "address": "", "city": "Mormugao", "short_name": "Goa Colva Beach", "lng": 73.9301308, "lat": 15.3868137, "external_source": "facebook_places", "facebook_places_id": 440484029634980}, "title": "Goa Colva Beach", "subtitle": "Mormugao", "profile_pic_url": null}, {"location": {"pk": 279482109145703, "name": "Goa,Baga Beach", "address": "", "city": "Delhi, India", "short_name": "Goa", "lng": 77.29696, "lat": 28.66893, "external_source": "facebook_places", "facebook_places_id": 279482109145703}, "title": "Goa,Baga Beach", "subtitle": "Delhi, India", "profile_pic_url": null}, {"location": {"pk": 942746889218750, "name": "Goa Margao", "address": "", "city": "Margao", "short_name": "Goa Margao", "lng": 73.970205633416, "lat": 15.267952468829, "external_source": "facebook_places", "facebook_places_id": 942746889218750}, "title": "Goa Margao", "subtitle": "Margao", "profile_pic_url": null}, {"location": {"pk": 567185562, "name": "Calgunte Beach, Goa", "address": "", "city": "Goa, India", "short_name": "Calgunte Beach", "lng": 73.756652489051, "lat": 15.545158432346, "external_source": "facebook_places", "facebook_places_id": 427716250625191}, "title": "Calgunte Beach, Goa", "subtitle": "Goa, India", "profile_pic_url": null}, {"location": {"pk": 236823801, "name": "Goa Marriott Resort & Spa", "address": "Miramar, Miramar", "city": "Panjim, Goa, India", "short_name": "Goa Marriott Resort & Spa", "lng": 73.809328079224, "lat": 15.486851327816, "external_source": "facebook_places", "facebook_places_id": 218131344868950}, "title": "Goa Marriott Resort & Spa", "subtitle": "Miramar, Miramar, Panjim, Goa, India", "profile_pic_url": null}, {"location": {"pk": 280621528, "name": "GoAir", "address": "", "city": "", "short_name": "GoAir", "external_source": "facebook_places", "facebook_places_id": 640307582665941}, "title": "GoAir", "subtitle": "", "profile_pic_url": null}, {"location": {"pk": 5017283, "name": "Goa, Camarines Sur", "address": "", "city": "", "short_name": "Goa", "lng": 123.47649, "lat": 13.69577, "external_source": "facebook_places", "facebook_places_id": 108481079175584}, "title": "Goa, Camarines Sur", "subtitle": "", "profile_pic_url": null}, {"location": {"pk": 216306572, "name": "Colva, Goa, India", "address": "", "city": "", "short_name": "Colva", "lng": 73.9167, "lat": 15.2667, "external_source": "facebook_places", "facebook_places_id": 116052395072528}, "title": "Colva, Goa, India", "subtitle": "", "profile_pic_url": null}, {"location": {"pk": 546991005460253, "name": "Goaa", "address": "Haji Bandar Road", "city": "", "short_name": "Goaa", "lng": 72.828839672258, "lat": 18.957804473667, "external_source": "facebook_places", "facebook_places_id": 546991005460253}, "title": "Goaa", "subtitle": "Haji Bandar Road", "profile_pic_url": null}, {"location": {"pk": 106283279926346, "name": "Anjuna Beach,Goa", "address": "", "city": "Marg\u00e3o", "short_name": "Anjuna Beach", "lng": 73.84907, "lat": 18.45476, "external_source": "facebook_places", "facebook_places_id": 106283279926346}, "title": "Anjuna Beach,Goa", "subtitle": "Marg\u00e3o", "profile_pic_url": null}, {"location": {"pk": 502625793096438, "name": "Goa Road", "address": "", "city": "", "short_name": "Goa Road", "lng": 73.238530173403, "lat": 18.30713100375, "external_source": "facebook_places", "facebook_places_id": 502625793096438}, "title": "Goa Road", "subtitle": "", "profile_pic_url": null}, {"location": {"pk": 736292756, "name": "Coco Beach, Goa", "address": "", "city": "Mumbai, Maharashtra", "short_name": "Coco Beach", "lng": 72.8606027, "lat": 19.1116597, "external_source": "facebook_places", "facebook_places_id": 717322241620589}, "title": "Coco Beach, Goa", "subtitle": "Mumbai, Maharashtra", "profile_pic_url": null}, {"location": {"pk": 1016236012, "name": "Goa Airport Domestic Terminal", "address": "", "city": "Mormugao", "short_name": "Goa Airport Domestic Terminal", "lng": 73.837104475358, "lat": 15.38493893225, "external_source": "facebook_places", "facebook_places_id": 108535485977765}, "title": "Goa Airport Domestic Terminal", "subtitle": "Mormugao", "profile_pic_url": null}, {"location": {"pk": 425169821168509, "name": "Goandevi Maidan Ghatla Chembur", "address": "", "city": "", "short_name": "Goandevi Maidan Ghatla Chembur", "lng": 72.907916124605, "lat": 19.054413577777, "external_source": "facebook_places", "facebook_places_id": 425169821168509}, "title": "Goandevi Maidan Ghatla Chembur", "subtitle": "", "profile_pic_url": null}, {"location": {"pk": 238765449, "name": "Vasco da Gama, Goa", "address": "", "city": "", "short_name": "Vasco da Gama", "lng": 73.806435689814, "lat": 15.398741264991, "external_source": "facebook_places", "facebook_places_id": 107727732584084}, "title": "Vasco da Gama, Goa", "subtitle": "", "profile_pic_url": null}, {"location": {"pk": 244212226, "name": "Old Goa Church", "address": "", "city": "Panjim, Goa, India", "short_name": "Old Goa Church", "lng": 73.874073845726, "lat": 15.502089280533, "external_source": "facebook_places", "facebook_places_id": 285306291519238}, "title": "Old Goa Church", "subtitle": "Panjim, Goa, India", "profile_pic_url": null}, {"location": {"pk": 221528827, "name": "Chapora Fort, Goa, India", "address": "", "city": "", "short_name": "Chapora Fort", "lng": 73.736905728, "lat": 15.6051473213, "external_source": "facebook_places", "facebook_places_id": 107093962655728}, "title": "Chapora Fort, Goa, India", "subtitle": "", "profile_pic_url": null}, {"location": {"pk": 544513565, "name": "Ullasnagar Goal Maidan", "address": "", "city": "Mumbai, Maharashtra", "short_name": "Ullasnagar Goal Maidan", "lng": 73.159040283137, "lat": 19.235981407236, "external_source": "facebook_places", "facebook_places_id": 193405610792129}, "title": "Ullasnagar Goal Maidan", "subtitle": "Mumbai, Maharashtra", "profile_pic_url": null}, {"location": {"pk": 218929575, "name": "Dona Paula, Goa, India", "address": "", "city": "", "short_name": "Dona Paula", "lng": 73.803161304381, "lat": 15.452060659095, "external_source": "facebook_places", "facebook_places_id": 104948192873876}, "title": "Dona Paula, Goa, India", "subtitle": "", "profile_pic_url": null}, {"location": {"pk": 83824908, "name": "Grand Hyatt Goa", "address": "Bambolim", "city": "Goa, India", "short_name": "Grand Hyatt Goa", "lng": 73.851749019247, "lat": 15.451300914017, "external_source": "facebook_places", "facebook_places_id": 259674354083617}, "title": "Grand Hyatt Goa", "subtitle": "Bambolim, Goa, India", "profile_pic_url": null}, {"location": {"pk": 472327696, "name": "HillTop Goa", "address": "Hill top Vagator, Bardez", "city": "Goa, India", "short_name": "HillTop Goa", "lng": 73.74220284369, "lat": 15.592836658507, "external_source": "facebook_places", "facebook_places_id": 785893374823868}, "title": "HillTop Goa", "subtitle": "Hill top Vagator, Bardez, Goa, India", "profile_pic_url": null}, {"location": {"pk": 669760785, "name": "Kalangute Beach Goa - Panjim", "address": "Goa", "city": "Mumbai, Maharashtra", "short_name": "Kalangute Beach Goa - Panjim", "lng": 72.8757505, "lat": 19.1730251, "external_source": "facebook_places", "facebook_places_id": 357548277678321}, "title": "Kalangute Beach Goa - Panjim", "subtitle": "Goa, Mumbai, Maharashtra", "profile_pic_url": null}, {"location": {"pk": 216366562, "name": "Vagator Goa", "address": "", "city": "", "short_name": "Vagator Goa", "lng": 73.762417538462, "lat": 15.574740461538, "external_source": "facebook_places", "facebook_places_id": 466171506730451}, "title": "Vagator Goa", "subtitle": "", "profile_pic_url": null}, {"location": {"pk": 252941388448414, "name": "Calingut Beach Goa", "address": "", "city": "Mumbai, Maharashtra", "short_name": "Calingut Beach Goa", "lng": 72.8480162, "lat": 19.2169706, "external_source": "facebook_places", "facebook_places_id": 252941388448414}, "title": "Calingut Beach Goa", "subtitle": "Mumbai, Maharashtra", "profile_pic_url": null}, {"location": {"pk": 565467112, "name": "Provorim Goa", "address": "", "city": "Mumbai, Maharashtra", "short_name": "Provorim Goa", "lng": 72.831696963333, "lat": 19.062150871667, "external_source": "facebook_places", "facebook_places_id": 257277201001216}, "title": "Provorim Goa", "subtitle": "Mumbai, Maharashtra", "profile_pic_url": null}, {"location": {"pk": 236018662, "name": "Mandrem, Goa, India", "address": "", "city": "", "short_name": "Mandrem", "lng": 73.7, "lat": 15.65, "external_source": "facebook_places", "facebook_places_id": 109372089086914}, "title": "Mandrem, Goa, India", "subtitle": "", "profile_pic_url": null}, {"location": {"pk": 266261581, "name": "Madgaon", "address": "", "city": "", "short_name": "Madgaon", "lng": 73.9623, "lat": 15.2784, "external_source": "facebook_places", "facebook_places_id": 112856845399996}, "title": "Madgaon, Goa, India", "subtitle": "", "profile_pic_url": null}, {"location": {"pk": 175498059589356, "name": "Baga Beach in Goa", "address": "Baga", "city": "Goa, India", "short_name": "Baga Beach in Goa", "lng": 73.7999, "lat": 15.54185, "external_source": "facebook_places", "facebook_places_id": 175498059589356}, "title": "Baga Beach in Goa", "subtitle": "Baga, Goa, India", "profile_pic_url": null}], "has_more": false, "inform_module": null, "page_token": null, "rank_token": "25301151700_14f33772-cf9e-41f8-8d1f-466a02dee4fe", "status": "ok"}